%time,field.header.seq,field.header.stamp,field.pose.position.x,field.pose.position.y,field.pose.position.z,field.pose.orientation.x,field.pose.orientation.y,field.pose.orientation.z,field.pose.orientation.w,field.twist.linear.x,field.twist.linear.y,field.twist.linear.z,field.twist.angular.x,field.twist.angular.y,field.twist.angular.z,field.wrench.force.x,field.wrench.force.y,field.wrench.force.z,field.wrench.torque.x,field.wrench.torque.y,field.wrench.torque.z,field.valid
1.57E+18,870877,1.57E+18,0.650182092,-0.000590653,0.399884249,0.000276743,0.000138346,0.705683631,0.708527005,-0.000926749,-8.93E-05,-6.67E-05,-0.001554872,0.001390247,-0.003152795,-0.508266894,-0.942617905,2.424526955,-0.188909055,0.128922858,0.813871242,1
1.57E+18,870878,1.57E+18,0.650182092,-0.000590653,0.399884249,0.000276743,0.000138346,0.705683631,0.708527005,-0.000926749,-8.93E-05,-6.67E-05,-0.001554872,0.001390247,-0.003152795,-0.408733694,-0.586203888,2.824712056,-0.18518621,0.075696495,0.816656294,1
1.57E+18,870879,1.57E+18,0.650182092,-0.000590653,0.399884249,0.000276743,0.000138346,0.705683631,0.708527005,-0.000926749,-8.93E-05,-6.67E-05,-0.001554872,0.001390247,-0.003152795,-0.429010851,-1.106043433,2.663938589,-0.238013383,0.070767896,0.83505494,1
1.57E+18,870880,1.57E+18,0.650182092,-0.000590653,0.399884249,0.000276743,0.000138346,0.705683631,0.708527005,-0.000926749,-8.93E-05,-6.67E-05,-0.001554872,0.001390247,-0.003152795,-0.432033677,-1.179547084,2.76264618,-0.299757216,0.042241904,0.850598025,1
1.57E+18,870881,1.57E+18,0.650182092,-0.000590653,0.399884249,0.000276743,0.000138346,0.705683631,0.708527005,-0.000926749,-8.93E-05,-6.67E-05,-0.001554872,0.001390247,-0.003152795,-0.426454485,-0.928129218,2.642713744,-0.263572868,0.023208944,0.790870731,1
1.57E+18,870882,1.57E+18,0.650182092,-0.000590653,0.399884249,0.000276743,0.000138346,0.705683631,0.708527005,-0.000926749,-8.93E-05,-6.67E-05,-0.001554872,0.001390247,-0.003152795,-0.412397936,-1.065601191,2.660469789,-0.242301821,0.059052563,0.821645052,1
1.57E+18,870883,1.57E+18,0.650182092,-0.000590653,0.399884249,0.000276743,0.000138346,0.705683631,0.708527005,-0.000926749,-8.93E-05,-6.67E-05,-0.001554872,0.001390247,-0.003152795,-0.402614391,-0.927555415,2.689897776,-0.229021587,0.065918121,0.820951432,1
1.57E+18,870884,1.57E+18,0.650182092,-0.000590653,0.399884249,0.000276743,0.000138346,0.705683631,0.708527005,-0.000926749,-8.93E-05,-6.67E-05,-0.001554872,0.001390247,-0.003152795,-0.365913533,-1.271955471,2.572500824,-0.288510905,0.033474046,0.805116377,1
1.57E+18,870885,1.57E+18,0.650182092,-0.000590653,0.399884249,0.000276743,0.000138346,0.705683631,0.708527005,-0.000926749,-8.93E-05,-6.67E-05,-0.001554872,0.001390247,-0.003152795,-0.374046592,-0.783781533,2.930727399,-0.235843045,0.056393439,0.808479881,1
1.57E+18,870886,1.57E+18,0.650182092,-0.000590653,0.399884249,0.000276743,0.000138346,0.705683631,0.708527005,-0.000926749,-8.93E-05,-6.67E-05,-0.001554872,0.001390247,-0.003152795,-0.367357629,-0.98222429,2.803845171,-0.237889371,0.042564807,0.804532858,1
1.57E+18,870887,1.57E+18,0.650182092,-0.000590653,0.399884249,0.000276743,0.000138346,0.705683631,0.708527005,-0.000926749,-8.93E-05,-6.67E-05,-0.001554872,0.001390247,-0.003152795,-0.46615105,-1.241692634,2.570307904,-0.264523957,0.090706032,0.802532436,1
1.57E+18,870888,1.57E+18,0.650182092,-0.000590653,0.399884249,0.000276743,0.000138346,0.705683631,0.708527005,-0.000926749,-8.93E-05,-6.67E-05,-0.001554872,0.001390247,-0.003152795,-0.40574216,-1.148961534,2.431861841,-0.256083697,0.059362111,0.817933942,1
1.57E+18,870889,1.57E+18,0.650182092,-0.000590653,0.399884249,0.000276743,0.000138346,0.705683631,0.708527005,-0.000926749,-8.93E-05,-6.67E-05,-0.001554872,0.001390247,-0.003152795,-0.333038663,-1.0659032,2.781100551,-0.245617025,0.071320006,0.820933427,1
1.57E+18,870890,1.57E+18,0.650182092,-0.000590653,0.399884249,0.000276743,0.000138346,0.705683631,0.708527005,-0.000926749,-8.93E-05,-6.67E-05,-0.001554872,0.001390247,-0.003152795,-0.491606882,-1.016129786,2.624639939,-0.245262654,0.076159982,0.818455908,1
1.57E+18,870891,1.57E+18,0.650182092,-0.000590653,0.399884249,0.000276743,0.000138346,0.705683631,0.708527005,-0.000926749,-8.93E-05,-6.67E-05,-0.001554872,0.001390247,-0.003152795,-0.469267717,-1.069712869,2.770277906,-0.284886547,0.046881623,0.818637457,1
1.57E+18,870892,1.57E+18,0.650182092,-0.000590653,0.399884249,0.000276743,0.000138346,0.705683631,0.708527005,-0.000926749,-8.93E-05,-6.67E-05,-0.001554872,0.001390247,-0.003152795,-0.497678122,-1.232791069,2.434483387,-0.274694756,0.060133729,0.822119092,1
1.57E+18,870893,1.57E+18,0.650182092,-0.000590653,0.399884249,0.000276743,0.000138346,0.705683631,0.708527005,-0.000926749,-8.93E-05,-6.67E-05,-0.001554872,0.001390247,-0.003152795,-0.437740925,-1.236659668,2.462991727,-0.253724096,0.094046218,0.82749718,1
1.57E+18,870894,1.57E+18,0.650182092,-0.000590653,0.399884249,0.000276743,0.000138346,0.705683631,0.708527005,-0.000926749,-8.93E-05,-6.67E-05,-0.001554872,0.001390247,-0.003152795,-0.396982365,-1.095355137,2.64926691,-0.238991707,0.035137219,0.82532599,1
1.57E+18,870895,1.57E+18,0.650182092,-0.000590653,0.399884249,0.000276743,0.000138346,0.705683631,0.708527005,-0.000926749,-8.93E-05,-6.67E-05,-0.001554872,0.001390247,-0.003152795,-0.392576184,-1.088838794,2.729323676,-0.258345218,0.093058994,0.810533088,1
1.57E+18,870896,1.57E+18,0.650182092,-0.000590653,0.399884249,0.000276743,0.000138346,0.705683631,0.708527005,-0.000926749,-8.93E-05,-6.67E-05,-0.001554872,0.001390247,-0.003152795,-0.422467752,-0.824123472,2.469324633,-0.187001672,0.102925064,0.813852704,1
1.57E+18,870897,1.57E+18,0.650182092,-0.000590653,0.399884249,0.000276743,0.000138346,0.705683631,0.708527005,-0.000926749,-8.93E-05,-6.67E-05,-0.001554872,0.001390247,-0.003152795,-0.452118869,-1.229806407,2.748877556,-0.270476301,0.061918829,0.805104206,1
1.57E+18,870898,1.57E+18,0.650182092,-0.000590653,0.399884249,0.000276743,0.000138346,0.705683631,0.708527005,-0.000926749,-8.93E-05,-6.67E-05,-0.001554872,0.001390247,-0.003152795,-0.406416115,-0.701201121,2.598352989,-0.155377128,0.127965306,0.800015126,1
1.57E+18,870899,1.57E+18,0.650182092,-0.000590653,0.399884249,0.000276743,0.000138346,0.705683631,0.708527005,-0.000926749,-8.93E-05,-6.67E-05,-0.001554872,0.001390247,-0.003152795,-0.392437076,-0.560450074,2.69245153,-0.186823405,0.067281159,0.812091607,1
1.57E+18,870900,1.57E+18,0.650182092,-0.000590653,0.399884249,0.000276743,0.000138346,0.705683631,0.708527005,-0.000926749,-8.93E-05,-6.67E-05,-0.001554872,0.001390247,-0.003152795,-0.384835304,-1.296872334,2.770468589,-0.273283888,0.048777984,0.816567652,1
1.57E+18,870901,1.57E+18,0.650182092,-0.000590653,0.399884249,0.000276743,0.000138346,0.705683631,0.708527005,-0.000926749,-8.93E-05,-6.67E-05,-0.001554872,0.001390247,-0.003152795,-0.375414005,-1.390778427,2.428933117,-0.27971169,0.051082588,0.796962623,1
1.57E+18,870902,1.57E+18,0.650182092,-0.000590653,0.399884249,0.000276743,0.000138346,0.705683631,0.708527005,-0.000926749,-8.93E-05,-6.67E-05,-0.001554872,0.001390247,-0.003152795,-0.475026647,-1.268749805,2.681721382,-0.271382864,0.068029362,0.813352938,1
1.57E+18,870903,1.57E+18,0.650182092,-0.000590653,0.399884249,0.000276743,0.000138346,0.705683631,0.708527005,-0.000926749,-8.93E-05,-6.67E-05,-0.001554872,0.001390247,-0.003152795,-0.387481494,-1.229339511,2.475196604,-0.267909899,0.081016185,0.796347889,1
1.57E+18,870904,1.57E+18,0.650182092,-0.000590653,0.399884249,0.000276743,0.000138346,0.705683631,0.708527005,-0.000926749,-8.93E-05,-6.67E-05,-0.001554872,0.001390247,-0.003152795,-0.3874855,-1.185011171,2.600604988,-0.234251777,0.044600287,0.814756193,1
1.57E+18,870905,1.57E+18,0.650182092,-0.000590653,0.399884249,0.000276743,0.000138346,0.705683631,0.708527005,-0.000926749,-8.93E-05,-6.67E-05,-0.001554872,0.001390247,-0.003152795,-0.476820578,-1.191967086,2.688087942,-0.266861885,0.059098311,0.812088024,1
1.57E+18,870906,1.57E+18,0.650182092,-0.000590653,0.399884249,0.000276743,0.000138346,0.705683631,0.708527005,-0.000926749,-8.93E-05,-6.67E-05,-0.001554872,0.001390247,-0.003152795,-0.396167738,-1.247701542,2.512261957,-0.265639191,0.086637891,0.807279752,1
1.57E+18,870907,1.57E+18,0.650182092,-0.000590653,0.399884249,0.000276743,0.000138346,0.705683631,0.708527005,-0.000926749,-8.93E-05,-6.67E-05,-0.001554872,0.001390247,-0.003152795,-0.429032859,-1.241693321,2.556929928,-0.296019723,0.072870367,0.834704679,1
1.57E+18,870908,1.57E+18,0.650182092,-0.000590653,0.399884249,0.000276743,0.000138346,0.705683631,0.708527005,-0.000926749,-8.93E-05,-6.67E-05,-0.001554872,0.001390247,-0.003152795,-0.399140341,-0.739116459,2.840028526,-0.227744204,0.104639154,0.805884998,1
1.57E+18,870909,1.57E+18,0.650182092,-0.000590653,0.399884249,0.000276743,0.000138346,0.705683631,0.708527005,-0.000926749,-8.93E-05,-6.67E-05,-0.001554872,0.001390247,-0.003152795,-0.498413407,-0.857266301,2.69598627,-0.224695595,0.05903458,0.82235588,1
1.57E+18,870910,1.57E+18,0.650182092,-0.000590653,0.399884249,0.000276743,0.000138346,0.705683631,0.708527005,-0.000926749,-8.93E-05,-6.67E-05,-0.001554872,0.001390247,-0.003152795,-0.405535398,-1.090829753,2.611240291,-0.242554907,0.076831261,0.818118996,1
1.57E+18,870911,1.57E+18,0.650182092,-0.000590653,0.399884249,0.000276743,0.000138346,0.705683631,0.708527005,-0.000926749,-8.93E-05,-6.67E-05,-0.001554872,0.001390247,-0.003152795,-0.453872848,-1.134523938,2.650898153,-0.244592916,0.073018978,0.850800123,1
1.57E+18,870912,1.57E+18,0.650182092,-0.000590653,0.399884249,0.000276743,0.000138346,0.705683631,0.708527005,-0.000926749,-8.93E-05,-6.67E-05,-0.001554872,0.001390247,-0.003152795,-0.468596113,-0.93277071,2.494206555,-0.209097577,0.061286784,0.801435414,1
1.57E+18,870913,1.57E+18,0.650182092,-0.000590653,0.399884249,0.000276743,0.000138346,0.705683631,0.708527005,-0.000926749,-8.93E-05,-6.67E-05,-0.001554872,0.001390247,-0.003152795,-0.329096557,-1.630853922,2.463280826,-0.29979118,0.046268805,0.823004254,1
1.57E+18,870914,1.57E+18,0.650182092,-0.000590653,0.399884249,0.000276743,0.000138346,0.705683631,0.708527005,-0.000926749,-8.93E-05,-6.67E-05,-0.001554872,0.001390247,-0.003152795,-0.39915605,-1.391912034,2.675745071,-0.304091097,0.055762327,0.82267592,1
1.57E+18,870915,1.57E+18,0.650182092,-0.000590653,0.399884249,0.000276743,0.000138346,0.705683631,0.708527005,-0.000926749,-8.93E-05,-6.67E-05,-0.001554872,0.001390247,-0.003152795,-0.384198771,-0.886583616,2.711808215,-0.219789581,0.098012821,0.799773991,1
1.57E+18,870916,1.57E+18,0.650182092,-0.000590653,0.399884249,0.000276743,0.000138346,0.705683631,0.708527005,-0.000926749,-8.93E-05,-6.67E-05,-0.001554872,0.001390247,-0.003152795,-0.385561284,-1.078571164,2.598616144,-0.219280131,0.074782535,0.798308567,1
1.57E+18,870917,1.57E+18,0.650182092,-0.000590653,0.399884249,0.000276743,0.000138346,0.705683631,0.708527005,-0.000926749,-8.93E-05,-6.67E-05,-0.001554872,0.001390247,-0.003152795,-0.472124354,-1.195756466,2.664560197,-0.288752353,0.070597945,0.815919954,1
1.57E+18,870918,1.57E+18,0.650182092,-0.000590653,0.399884249,0.000276743,0.000138346,0.705683631,0.708527005,-0.000926749,-8.93E-05,-6.67E-05,-0.001554872,0.001390247,-0.003152795,-0.392946993,-1.016594257,2.624793156,-0.231114274,0.076775586,0.81052156,1
1.57E+18,870919,1.57E+18,0.650182092,-0.000590653,0.399884249,0.000276743,0.000138346,0.705683631,0.708527005,-0.000926749,-8.93E-05,-6.67E-05,-0.001554872,0.001390247,-0.003152795,-0.382520702,-1.790262418,2.53252936,-0.315233227,0.075741874,0.799051344,1
1.57E+18,870920,1.57E+18,0.650182092,-0.000590653,0.399884249,0.000276743,0.000138346,0.705683631,0.708527005,-0.000926749,-8.93E-05,-6.67E-05,-0.001554872,0.001390247,-0.003152795,-0.415259446,-1.202125661,2.593556101,-0.3109833,0.014514453,0.837289194,1
1.57E+18,870921,1.57E+18,0.650182092,-0.000590653,0.399884249,0.000276743,0.000138346,0.705683631,0.708527005,-0.000926749,-8.93E-05,-6.67E-05,-0.001554872,0.001390247,-0.003152795,-0.410691791,-1.36963236,2.572521136,-0.280550772,0.117080712,0.813015964,1
1.57E+18,870922,1.57E+18,0.650182092,-0.000590653,0.399884249,0.000276743,0.000138346,0.705683631,0.708527005,-0.000926749,-8.93E-05,-6.67E-05,-0.001554872,0.001390247,-0.003152795,-0.369849363,-1.158526052,2.700694165,-0.262267489,0.056358841,0.802016566,1
1.57E+18,870923,1.57E+18,0.650182092,-0.000590653,0.399884249,0.000276743,0.000138346,0.705683631,0.708527005,-0.000926749,-8.93E-05,-6.67E-05,-0.001554872,0.001390247,-0.003152795,-0.372385657,-0.977042901,2.77445801,-0.249384704,0.085402372,0.800232582,1
1.57E+18,870924,1.57E+18,0.650182092,-0.000590653,0.399884249,0.000276743,0.000138346,0.705683631,0.708527005,-0.000926749,-8.93E-05,-6.67E-05,-0.001554872,0.001390247,-0.003152795,-0.390553786,-1.132130789,2.723676257,-0.256392673,0.122700823,0.793796607,1
1.57E+18,870925,1.57E+18,0.650182092,-0.000590653,0.399884249,0.000276743,0.000138346,0.705683631,0.708527005,-0.000926749,-8.93E-05,-6.67E-05,-0.001554872,0.001390247,-0.003152795,-0.507025598,-1.512596127,2.602891577,-0.325681847,0.066343197,0.831776072,1
1.57E+18,870926,1.57E+18,0.650182092,-0.000590653,0.399884249,0.000276743,0.000138346,0.705683631,0.708527005,-0.000926749,-8.93E-05,-6.67E-05,-0.001554872,0.001390247,-0.003152795,-0.392424551,-1.099830945,2.649828698,-0.266192706,0.053108368,0.81080419,1
1.57E+18,870927,1.57E+18,0.650182092,-0.000590653,0.399884249,0.000276743,0.000138346,0.705683631,0.708527005,-0.000926749,-8.93E-05,-6.67E-05,-0.001554872,0.001390247,-0.003152795,-0.512128715,-1.175181598,2.64962755,-0.249945917,0.065959477,0.828405703,1
1.57E+18,870928,1.57E+18,0.650182092,-0.000590653,0.399884249,0.000276743,0.000138346,0.705683631,0.708527005,-0.000926749,-8.93E-05,-6.67E-05,-0.001554872,0.001390247,-0.003152795,-0.365433966,-1.472891403,2.738721443,-0.31890174,0.03940024,0.804914364,1
1.57E+18,870929,1.57E+18,0.650182092,-0.000590653,0.399884249,0.000276743,0.000138346,0.705683631,0.708527005,-0.000926749,-8.93E-05,-6.67E-05,-0.001554872,0.001390247,-0.003152795,-0.399959766,-1.164526891,2.374830826,-0.235792005,0.063954114,0.804501229,1
1.57E+18,870930,1.57E+18,0.650182092,-0.000590653,0.399884249,0.000276743,0.000138346,0.705683631,0.708527005,-0.000926749,-8.93E-05,-6.67E-05,-0.001554872,0.001390247,-0.003152795,-0.471934537,-1.206902161,2.634791082,-0.273516536,0.066195151,0.862986811,1
1.57E+18,870931,1.57E+18,0.650182092,-0.000590653,0.399884249,0.000276743,0.000138346,0.705683631,0.708527005,-0.000926749,-8.93E-05,-6.67E-05,-0.001554872,0.001390247,-0.003152795,-0.407414344,-1.128224382,2.712659918,-0.253141153,0.057924482,0.825593413,1
1.57E+18,870932,1.57E+18,0.650182092,-0.000590653,0.399884249,0.000276743,0.000138346,0.705683631,0.708527005,-0.000926749,-8.93E-05,-6.67E-05,-0.001554872,0.001390247,-0.003152795,-0.430319413,-1.238054196,2.615319861,-0.272922727,0.064420306,0.833670174,1
1.57E+18,870933,1.57E+18,0.650182092,-0.000590653,0.399884249,0.000276743,0.000138346,0.705683631,0.708527005,-0.000926749,-8.93E-05,-6.67E-05,-0.001554872,0.001390247,-0.003152795,-0.412143296,-1.334212841,2.462171917,-0.279940697,0.083715162,0.812067346,1
1.57E+18,870934,1.57E+18,0.650182092,-0.000590653,0.399884249,0.000276743,0.000138346,0.705683631,0.708527005,-0.000926749,-8.93E-05,-6.67E-05,-0.001554872,0.001390247,-0.003152795,-0.513228086,-0.914258688,2.659995907,-0.205360979,0.075571959,0.828121671,1
1.57E+18,870935,1.57E+18,0.650182092,-0.000590653,0.399884249,0.000276743,0.000138346,0.705683631,0.708527005,-0.000926749,-8.93E-05,-6.67E-05,-0.001554872,0.001390247,-0.003152795,-0.401597803,-1.211429088,2.703087709,-0.260951627,0.016459359,0.830354522,1
1.57E+18,870936,1.57E+18,0.650182092,-0.000590653,0.399884249,0.000276743,0.000138346,0.705683631,0.708527005,-0.000926749,-8.93E-05,-6.67E-05,-0.001554872,0.001390247,-0.003152795,-0.451217905,-0.893021446,2.719473266,-0.230082964,0.061637097,0.853609518,1
1.57E+18,870937,1.57E+18,0.650182092,-0.000590653,0.399884249,0.000276743,0.000138346,0.705683631,0.708527005,-0.000926749,-8.93E-05,-6.67E-05,-0.001554872,0.001390247,-0.003152795,-0.381497607,-0.868123883,2.548340613,-0.208342987,0.07986211,0.793094247,1
1.57E+18,870938,1.57E+18,0.650182092,-0.000590653,0.399884249,0.000276743,0.000138346,0.705683631,0.708527005,-0.000926749,-8.93E-05,-6.67E-05,-0.001554872,0.001390247,-0.003152795,-0.407130342,-1.113624238,2.573317296,-0.287256774,0.055893291,0.81680598,1
1.57E+18,870939,1.57E+18,0.650182092,-0.000590653,0.399884249,0.000276743,0.000138346,0.705683631,0.708527005,-0.000926749,-8.93E-05,-6.67E-05,-0.001554872,0.001390247,-0.003152795,-0.387144288,-0.916626377,2.613149259,-0.247981992,0.023102759,0.815757473,1
1.57E+18,870940,1.57E+18,0.650182092,-0.000590653,0.399884249,0.000276743,0.000138346,0.705683631,0.708527005,-0.000926749,-8.93E-05,-6.67E-05,-0.001554872,0.001390247,-0.003152795,-0.416799866,-1.140112805,2.533854282,-0.229040494,0.091660697,0.817761293,1
1.57E+18,870941,1.57E+18,0.650182092,-0.000590653,0.399884249,0.000276743,0.000138346,0.705683631,0.708527005,-0.000926749,-8.93E-05,-6.67E-05,-0.001554872,0.001390247,-0.003152795,-0.398020213,-1.23366709,2.526696043,-0.262557205,0.076668245,0.805812833,1
1.57E+18,870942,1.57E+18,0.650182092,-0.000590653,0.399884249,0.000276743,0.000138346,0.705683631,0.708527005,-0.000926749,-8.93E-05,-6.67E-05,-0.001554872,0.001390247,-0.003152795,-0.472572641,-1.110896562,2.551924632,-0.262173152,0.050942912,0.815890149,1
1.57E+18,870943,1.57E+18,0.650182092,-0.000590653,0.399884249,0.000276743,0.000138346,0.705683631,0.708527005,-0.000926749,-8.93E-05,-6.67E-05,-0.001554872,0.001390247,-0.003152795,-0.418949428,-1.264797895,2.484231487,-0.26582516,0.081025528,0.815713031,1
1.57E+18,870944,1.57E+18,0.650182092,-0.000590653,0.399884249,0.000276743,0.000138346,0.705683631,0.708527005,-0.000926749,-8.93E-05,-6.67E-05,-0.001554872,0.001390247,-0.003152795,-0.435564935,-1.234353483,2.517883215,-0.242661653,0.092355548,0.82929489,1
1.57E+18,870945,1.57E+18,0.650182092,-0.000590653,0.399884249,0.000276743,0.000138346,0.705683631,0.708527005,-0.000926749,-8.93E-05,-6.67E-05,-0.001554872,0.001390247,-0.003152795,-0.42277549,-1.530121871,2.750153806,-0.318439254,0.03597868,0.839221326,1
1.57E+18,870946,1.57E+18,0.650182092,-0.000590653,0.399884249,0.000276743,0.000138346,0.705683631,0.708527005,-0.000926749,-8.93E-05,-6.67E-05,-0.001554872,0.001390247,-0.003152795,-0.436461653,-1.027730239,2.668327668,-0.230898618,0.10280648,0.828964836,1
1.57E+18,870947,1.57E+18,0.650182092,-0.000590653,0.399884249,0.000276743,0.000138346,0.705683631,0.708527005,-0.000926749,-8.93E-05,-6.67E-05,-0.001554872,0.001390247,-0.003152795,-0.430299067,-1.00189173,2.639970231,-0.262218611,0.0542556,0.834296812,1
1.57E+18,870948,1.57E+18,0.650182092,-0.000590653,0.399884249,0.000276743,0.000138346,0.705683631,0.708527005,-0.000926749,-8.93E-05,-6.67E-05,-0.001554872,0.001390247,-0.003152795,-0.497703455,-1.164070422,2.651238987,-0.288291528,0.031076991,0.840475045,1
1.57E+18,870949,1.57E+18,0.650182092,-0.000590653,0.399884249,0.000276743,0.000138346,0.705683631,0.708527005,-0.000926749,-8.93E-05,-6.67E-05,-0.001554872,0.001390247,-0.003152795,-0.413148945,-1.353021769,2.458617134,-0.266754838,0.089797676,0.811176853,1
1.57E+18,870950,1.57E+18,0.650182092,-0.000590653,0.399884249,0.000276743,0.000138346,0.705683631,0.708527005,-0.000926749,-8.93E-05,-6.67E-05,-0.001554872,0.001390247,-0.003152795,-0.44407604,-0.889196318,2.681538657,-0.218926475,0.059246491,0.841361127,1
1.57E+18,870951,1.57E+18,0.650182092,-0.000590653,0.399884249,0.000276743,0.000138346,0.705683631,0.708527005,-0.000926749,-8.93E-05,-6.67E-05,-0.001554872,0.001390247,-0.003152795,-0.508417794,-0.96161738,2.647195869,-0.247946411,0.073376935,0.831973838,1
1.57E+18,870952,1.57E+18,0.650182092,-0.000590653,0.399884249,0.000276743,0.000138346,0.705683631,0.708527005,-0.000926749,-8.93E-05,-6.67E-05,-0.001554872,0.001390247,-0.003152795,-0.500773205,-1.033707509,2.733924787,-0.255071736,0.087311443,0.819834511,1
1.57E+18,870953,1.57E+18,0.650182092,-0.000590653,0.399884249,0.000276743,0.000138346,0.705683631,0.708527005,-0.000926749,-8.93E-05,-6.67E-05,-0.001554872,0.001390247,-0.003152795,-0.502450952,-1.156206857,2.696751552,-0.240377213,0.106012142,0.818103636,1
1.57E+18,870954,1.57E+18,0.650182092,-0.000590653,0.399884249,0.000276743,0.000138346,0.705683631,0.708527005,-0.000926749,-8.93E-05,-6.67E-05,-0.001554872,0.001390247,-0.003152795,-0.363732216,-1.092527215,2.890585397,-0.268222708,0.076028046,0.80708848,1
1.57E+18,870955,1.57E+18,0.650182092,-0.000590653,0.399884249,0.000276743,0.000138346,0.705683631,0.708527005,-0.000926749,-8.93E-05,-6.67E-05,-0.001554872,0.001390247,-0.003152795,-0.426417818,-1.051963705,2.441712795,-0.225613903,0.064435272,0.828354359,1
1.57E+18,870956,1.57E+18,0.650182092,-0.000590653,0.399884249,0.000276743,0.000138346,0.705683631,0.708527005,-0.000926749,-8.93E-05,-6.67E-05,-0.001554872,0.001390247,-0.003152795,-0.391808105,-1.489997437,2.61883375,-0.290157321,0.06558415,0.810314732,1
1.57E+18,870957,1.57E+18,0.650182092,-0.000590653,0.399884249,0.000276743,0.000138346,0.705683631,0.708527005,-0.000926749,-8.93E-05,-6.67E-05,-0.001554872,0.001390247,-0.003152795,-0.423308612,-0.813266405,2.589277558,-0.203824147,0.113078548,0.813086596,1
1.57E+18,870958,1.57E+18,0.650182092,-0.000590653,0.399884249,0.000276743,0.000138346,0.705683631,0.708527005,-0.000926749,-8.93E-05,-6.67E-05,-0.001554872,0.001390247,-0.003152795,-0.513642453,-1.260677816,2.458349981,-0.263046238,0.113214933,0.826842394,1
1.57E+18,870959,1.57E+18,0.650182092,-0.000590653,0.399884249,0.000276743,0.000138346,0.705683631,0.708527005,-0.000926749,-8.93E-05,-6.67E-05,-0.001554872,0.001390247,-0.003152795,-0.394896843,-1.155976914,2.617266758,-0.271535194,0.035142892,0.826896702,1
1.57E+18,870960,1.57E+18,0.650182092,-0.000590653,0.399884249,0.000276743,0.000138346,0.705683631,0.708527005,-0.000926749,-8.93E-05,-6.67E-05,-0.001554872,0.001390247,-0.003152795,-0.42245337,-1.300907058,2.690098776,-0.259711427,0.058363652,0.830927619,1
1.57E+18,870961,1.57E+18,0.650182092,-0.000590653,0.399884249,0.000276743,0.000138346,0.705683631,0.708527005,-0.000926749,-8.93E-05,-6.67E-05,-0.001554872,0.001390247,-0.003152795,-0.434439831,-1.081991856,2.795358552,-0.267316691,0.116823031,0.830380013,1
1.57E+18,870962,1.57E+18,0.650182092,-0.000590653,0.399884249,0.000276743,0.000138346,0.705683631,0.708527005,-0.000926749,-8.93E-05,-6.67E-05,-0.001554872,0.001390247,-0.003152795,-0.412420814,-1.196628581,2.578663792,-0.24411309,0.087660333,0.821234851,1
1.57E+18,870963,1.57E+18,0.650182092,-0.000590653,0.399884249,0.000276743,0.000138346,0.705683631,0.708527005,-0.000926749,-8.93E-05,-6.67E-05,-0.001554872,0.001390247,-0.003152795,-0.478837189,-1.293515772,2.650684552,-0.255170299,0.073934616,0.810139823,1
1.57E+18,870964,1.57E+18,0.650182092,-0.000590653,0.399884249,0.000276743,0.000138346,0.705683631,0.708527005,-0.000926749,-8.93E-05,-6.67E-05,-0.001554872,0.001390247,-0.003152795,-0.476750757,-0.970731357,2.705486985,-0.24180033,0.060647846,0.812688835,1
1.57E+18,870965,1.57E+18,0.650182092,-0.000590653,0.399884249,0.000276743,0.000138346,0.705683631,0.708527005,-0.000926749,-8.93E-05,-6.67E-05,-0.001554872,0.001390247,-0.003152795,-0.444594297,-1.223567071,2.494680503,-0.241881095,0.125582284,0.821736364,1
1.57E+18,870966,1.57E+18,0.650182092,-0.000590653,0.399884249,0.000276743,0.000138346,0.705683631,0.708527005,-0.000926749,-8.93E-05,-6.67E-05,-0.001554872,0.001390247,-0.003152795,-0.422234243,-1.431472446,2.625030878,-0.298165117,0.060478388,0.830784727,1
1.57E+18,870967,1.57E+18,0.650182092,-0.000590653,0.399884249,0.000276743,0.000138346,0.705683631,0.708527005,-0.000926749,-8.93E-05,-6.67E-05,-0.001554872,0.001390247,-0.003152795,-0.328630488,-1.141876549,2.708740638,-0.265896338,0.076642073,0.815293678,1
1.57E+18,870968,1.57E+18,0.650182092,-0.000590653,0.399884249,0.000276743,0.000138346,0.705683631,0.708527005,-0.000926749,-8.93E-05,-6.67E-05,-0.001554872,0.001390247,-0.003152795,-0.505516722,-1.45697795,2.65152653,-0.296223649,0.07313863,0.833135111,1
1.57E+18,870969,1.57E+18,0.650182092,-0.000590653,0.399884249,0.000276743,0.000138346,0.705683631,0.708527005,-0.000926749,-8.93E-05,-6.67E-05,-0.001554872,0.001390247,-0.003152795,-0.450690418,-0.935613523,2.736525803,-0.225933528,0.09933444,0.788701057,1
1.57E+18,870970,1.57E+18,0.650182092,-0.000590653,0.399884249,0.000276743,0.000138346,0.705683631,0.708527005,-0.000926749,-8.93E-05,-6.67E-05,-0.001554872,0.001390247,-0.003152795,-0.420961351,-1.037718102,2.768827547,-0.267601169,0.048670664,0.841903118,1
1.57E+18,870971,1.57E+18,0.650182092,-0.000590653,0.399884249,0.000276743,0.000138346,0.705683631,0.708527005,-0.000926749,-8.93E-05,-6.67E-05,-0.001554872,0.001390247,-0.003152795,-0.574225248,-1.00773878,2.552332753,-0.233189828,0.102229726,0.816336407,1
1.57E+18,870972,1.57E+18,0.650182092,-0.000590653,0.399884249,0.000276743,0.000138346,0.705683631,0.708527005,-0.000926749,-8.93E-05,-6.67E-05,-0.001554872,0.001390247,-0.003152795,-0.487018815,-0.897918186,2.608957001,-0.208354502,0.128749437,0.804180489,1
1.57E+18,870973,1.57E+18,0.650182092,-0.000590653,0.399884249,0.000276743,0.000138346,0.705683631,0.708527005,-0.000926749,-8.93E-05,-6.67E-05,-0.001554872,0.001390247,-0.003152795,-0.403006541,-1.111217919,2.810543758,-0.281916127,0.063251845,0.820105398,1
1.57E+18,870974,1.57E+18,0.650182092,-0.000590653,0.399884249,0.000276743,0.000138346,0.705683631,0.708527005,-0.000926749,-8.93E-05,-6.67E-05,-0.001554872,0.001390247,-0.003152795,-0.360703959,-1.569140791,2.358664341,-0.297656284,0.076286394,0.790428652,1
1.57E+18,870975,1.57E+18,0.650182092,-0.000590653,0.399884249,0.000276743,0.000138346,0.705683631,0.708527005,-0.000926749,-8.93E-05,-6.67E-05,-0.001554872,0.001390247,-0.003152795,-0.48978899,-1.094849041,2.634425942,-0.260859307,0.032567784,0.829013354,1
1.57E+18,870976,1.57E+18,0.650182092,-0.000590653,0.399884249,0.000276743,0.000138346,0.705683631,0.708527005,-0.000926749,-8.93E-05,-6.67E-05,-0.001554872,0.001390247,-0.003152795,-0.415223564,-0.847468737,2.691632026,-0.223802105,0.101799326,0.819682112,1
1.57E+18,870977,1.57E+18,0.650182092,-0.000590653,0.399884249,0.000276743,0.000138346,0.705683631,0.708527005,-0.000926749,-8.93E-05,-6.67E-05,-0.001554872,0.001390247,-0.003152795,-0.381592657,-0.846831039,2.655443413,-0.207610812,0.070518811,0.802158786,1
1.57E+18,870978,1.57E+18,0.650182092,-0.000590653,0.399884249,0.000276743,0.000138346,0.705683631,0.708527005,-0.000926749,-8.93E-05,-6.67E-05,-0.001554872,0.001390247,-0.003152795,-0.5138739,-1.159814018,2.650725602,-0.278233206,0.064847272,0.836084588,1
1.57E+18,870979,1.57E+18,0.650182092,-0.000590653,0.399884249,0.000276743,0.000138346,0.705683631,0.708527005,-0.000926749,-8.93E-05,-6.67E-05,-0.001554872,0.001390247,-0.003152795,-0.52177793,-1.01698103,2.644157058,-0.253426385,0.106716084,0.829756862,1
1.57E+18,870980,1.57E+18,0.650182092,-0.000590653,0.399884249,0.000276743,0.000138346,0.705683631,0.708527005,-0.000926749,-8.93E-05,-6.67E-05,-0.001554872,0.001390247,-0.003152795,-0.411950892,-0.864921918,2.553127573,-0.184111951,0.096932772,0.813347711,1
1.57E+18,870981,1.57E+18,0.650182092,-0.000590653,0.399884249,0.000276743,0.000138346,0.705683631,0.708527005,-0.000926749,-8.93E-05,-6.67E-05,-0.001554872,0.001390247,-0.003152795,-0.381161968,-1.380295765,2.418388067,-0.286301685,0.092953906,0.792078252,1
1.57E+18,870982,1.57E+18,0.650182092,-0.000590653,0.399884249,0.000276743,0.000138346,0.705683631,0.708527005,-0.000926749,-8.93E-05,-6.67E-05,-0.001554872,0.001390247,-0.003152795,-0.40656804,-1.436539162,2.560653963,-0.294280314,0.070319968,0.816432065,1
1.57E+18,870983,1.57E+18,0.650182092,-0.000590653,0.399884249,0.000276743,0.000138346,0.705683631,0.708527005,-0.000926749,-8.93E-05,-6.67E-05,-0.001554872,0.001390247,-0.003152795,-0.421718753,-1.369751203,2.57517242,-0.268135748,0.106107355,0.813035075,1
1.57E+18,870984,1.57E+18,0.650182092,-0.000590653,0.399884249,0.000276743,0.000138346,0.705683631,0.708527005,-0.000926749,-8.93E-05,-6.67E-05,-0.001554872,0.001390247,-0.003152795,-0.379681592,-0.864352969,2.710542818,-0.223013882,0.088869612,0.79449848,1
1.57E+18,870985,1.57E+18,0.650182092,-0.000590653,0.399884249,0.000276743,0.000138346,0.705683631,0.708527005,-0.000926749,-8.93E-05,-6.67E-05,-0.001554872,0.001390247,-0.003152795,-0.450906405,-1.446392008,2.439874773,-0.306419402,0.098822648,0.787347598,1
1.57E+18,870986,1.57E+18,0.650182092,-0.000590653,0.399884249,0.000276743,0.000138346,0.705683631,0.708527005,-0.000926749,-8.93E-05,-6.67E-05,-0.001554872,0.001390247,-0.003152795,-0.547648035,-0.927148061,2.580144704,-0.214185045,0.107321834,0.854112812,1
1.57E+18,870987,1.57E+18,0.650182092,-0.000590653,0.399884249,0.000276743,0.000138346,0.705683631,0.708527005,-0.000926749,-8.93E-05,-6.67E-05,-0.001554872,0.001390247,-0.003152795,-0.424777668,-1.278385331,2.510418014,-0.279822297,0.090534342,0.829002245,1
1.57E+18,870988,1.57E+18,0.650182092,-0.000590653,0.399884249,0.000276743,0.000138346,0.705683631,0.708527005,-0.000926749,-8.93E-05,-6.67E-05,-0.001554872,0.001390247,-0.003152795,-0.401564129,-1.065367985,2.726879291,-0.238983352,0.017041471,0.830740913,1
1.57E+18,870989,1.57E+18,0.650182092,-0.000590653,0.399884249,0.000276743,0.000138346,0.705683631,0.708527005,-0.000926749,-8.93E-05,-6.67E-05,-0.001554872,0.001390247,-0.003152795,-0.495191036,-0.743896863,2.812877927,-0.225251437,0.091216755,0.825134986,1
1.57E+18,870990,1.57E+18,0.650182092,-0.000590653,0.399884249,0.000276743,0.000138346,0.705683631,0.708527005,-0.000926749,-8.93E-05,-6.67E-05,-0.001554872,0.001390247,-0.003152795,-0.408907368,-1.061453917,2.82584623,-0.252029323,0.117465092,0.815158341,1
1.57E+18,870991,1.57E+18,0.650182092,-0.000590653,0.399884249,0.000276743,0.000138346,0.705683631,0.708527005,-0.000926749,-8.93E-05,-6.67E-05,-0.001554872,0.001390247,-0.003152795,-0.397218009,-1.245280795,2.564275816,-0.244900195,0.079603132,0.806433881,1
1.57E+18,870992,1.57E+18,0.650182092,-0.000590653,0.399884249,0.000276743,0.000138346,0.705683631,0.708527005,-0.000926749,-8.93E-05,-6.67E-05,-0.001554872,0.001390247,-0.003152795,-0.412923442,-0.826207366,2.802024555,-0.224801804,-0.001758807,0.840169058,1
1.57E+18,870993,1.57E+18,0.650182092,-0.000590653,0.399884249,0.000276743,0.000138346,0.705683631,0.708527005,-0.000926749,-8.93E-05,-6.67E-05,-0.001554872,0.001390247,-0.003152795,-0.45974637,-1.146712655,2.552871101,-0.257096326,0.032421711,0.799188565,1
1.57E+18,870994,1.57E+18,0.650182092,-0.000590653,0.399884249,0.000276743,0.000138346,0.705683631,0.708527005,-0.000926749,-8.93E-05,-6.67E-05,-0.001554872,0.001390247,-0.003152795,-0.486529616,-1.220195907,2.439957447,-0.256905654,0.104494796,0.803925113,1
1.57E+18,870995,1.57E+18,0.650182092,-0.000590653,0.399884249,0.000276743,0.000138346,0.705683631,0.708527005,-0.000926749,-8.93E-05,-6.67E-05,-0.001554872,0.001390247,-0.003152795,-0.430506034,-1.327174279,2.415162831,-0.275682361,0.061072826,0.833390271,1
1.57E+18,870996,1.57E+18,0.650182092,-0.000590653,0.399884249,0.000276743,0.000138346,0.705683631,0.708527005,-0.000926749,-8.93E-05,-6.67E-05,-0.001554872,0.001390247,-0.003152795,-0.403077279,-1.060589152,2.690600192,-0.240145048,0.062455101,0.820248898,1
1.57E+18,870997,1.57E+18,0.650182092,-0.000590653,0.399884249,0.000276743,0.000138346,0.705683631,0.708527005,-0.000926749,-8.93E-05,-6.67E-05,-0.001554872,0.001390247,-0.003152795,-0.441808137,-1.33326004,2.59472024,-0.286500383,0.070250063,0.842107384,1
1.57E+18,870998,1.57E+18,0.650182092,-0.000590653,0.399884249,0.000276743,0.000138346,0.705683631,0.708527005,-0.000926749,-8.93E-05,-6.67E-05,-0.001554872,0.001390247,-0.003152795,-0.423658615,-1.065621051,2.682670434,-0.247590957,0.054147723,0.830529996,1
1.57E+18,870999,1.57E+18,0.650182092,-0.000590653,0.399884249,0.000276743,0.000138346,0.705683631,0.708527005,-0.000926749,-8.93E-05,-6.67E-05,-0.001554872,0.001390247,-0.003152795,-0.407487296,-1.221021012,2.59181665,-0.265915797,0.066258651,0.816216978,1
1.57E+18,871000,1.57E+18,0.650182092,-0.000590653,0.399884249,0.000276743,0.000138346,0.705683631,0.708527005,-0.000926749,-8.93E-05,-6.67E-05,-0.001554872,0.001390247,-0.003152795,-0.429967881,-1.291553719,2.481062645,-0.265243716,0.089300564,0.824699598,1
1.57E+18,871001,1.57E+18,0.650182092,-0.000590653,0.399884249,0.000276743,0.000138346,0.705683631,0.708527005,-0.000926749,-8.93E-05,-6.67E-05,-0.001554872,0.001390247,-0.003152795,-0.501445951,-1.047857862,2.576417674,-0.236408902,0.084027654,0.819331236,1
1.57E+18,871002,1.57E+18,0.650182092,-0.000590653,0.399884249,0.000276743,0.000138346,0.705683631,0.708527005,-0.000926749,-8.93E-05,-6.67E-05,-0.001554872,0.001390247,-0.003152795,-0.491596538,-0.911647537,2.615911806,-0.218654066,0.090914065,0.818686385,1
1.57E+18,871003,1.57E+18,0.650182092,-0.000590653,0.399884249,0.000276743,0.000138346,0.705683631,0.708527005,-0.000926749,-8.93E-05,-6.67E-05,-0.001554872,0.001390247,-0.003152795,-0.394022322,-1.253107698,2.724796323,-0.257937211,0.095749688,0.808927646,1
1.57E+18,871004,1.57E+18,0.650182092,-0.000590653,0.399884249,0.000276743,0.000138346,0.705683631,0.708527005,-0.000926749,-8.93E-05,-6.67E-05,-0.001554872,0.001390247,-0.003152795,-0.404710748,-1.017904289,2.732609355,-0.270252319,0.047262894,0.82811999,1
1.57E+18,871005,1.57E+18,0.650182092,-0.000590653,0.399884249,0.000276743,0.000138346,0.705683631,0.708527005,-0.000926749,-8.93E-05,-6.67E-05,-0.001554872,0.001390247,-0.003152795,-0.368792091,-0.997792892,2.49315102,-0.242923911,0.080932902,0.785090732,1
1.57E+18,871006,1.57E+18,0.650182092,-0.000590653,0.399884249,0.000276743,0.000138346,0.705683631,0.708527005,-0.000926749,-8.93E-05,-6.67E-05,-0.001554872,0.001390247,-0.003152795,-0.37659054,-0.94041418,2.769436004,-0.258761154,0.063964395,0.796915098,1
1.57E+18,871007,1.57E+18,0.650182092,-0.000590653,0.399884249,0.000276743,0.000138346,0.705683631,0.708527005,-0.000926749,-8.93E-05,-6.67E-05,-0.001554872,0.001390247,-0.003152795,-0.406600474,-1.129426871,2.667022373,-0.271522209,0.063543944,0.826250591,1
1.57E+18,871008,1.57E+18,0.650182092,-0.000590653,0.399884249,0.000276743,0.000138346,0.705683631,0.708527005,-0.000926749,-8.93E-05,-6.67E-05,-0.001554872,0.001390247,-0.003152795,-0.502280038,-0.648395105,2.555883746,-0.194124278,0.097040559,0.819603495,1
1.57E+18,871009,1.57E+18,0.650182092,-0.000590653,0.399884249,0.000276743,0.000138346,0.705683631,0.708527005,-0.000926749,-8.93E-05,-6.67E-05,-0.001554872,0.001390247,-0.003152795,-0.41000414,-1.154794202,2.613166771,-0.264500156,0.072258951,0.823366035,1
1.57E+18,871010,1.57E+18,0.650182092,-0.000590653,0.399884249,0.000276743,0.000138346,0.705683631,0.708527005,-0.000926749,-8.93E-05,-6.67E-05,-0.001554872,0.001390247,-0.003152795,-0.493158176,-1.229339673,2.648604724,-0.280713104,0.073581646,0.825728995,1
1.57E+18,871011,1.57E+18,0.650182092,-0.000590653,0.399884249,0.000276743,0.000138346,0.705683631,0.708527005,-0.000926749,-8.93E-05,-6.67E-05,-0.001554872,0.001390247,-0.003152795,-0.381948407,-1.048298908,2.599453104,-0.248916457,0.068814693,0.801375438,1
1.57E+18,871012,1.57E+18,0.650182092,-0.000590653,0.399884249,0.000276743,0.000138346,0.705683631,0.708527005,-0.000926749,-8.93E-05,-6.67E-05,-0.001554872,0.001390247,-0.003152795,-0.419370746,-1.098681843,2.615941104,-0.226361049,0.113012002,0.814635376,1
1.57E+18,871013,1.57E+18,0.650182092,-0.000590653,0.399884249,0.000276743,0.000138346,0.705683631,0.708527005,-0.000926749,-8.93E-05,-6.67E-05,-0.001554872,0.001390247,-0.003152795,0.062159985,-1.349654539,2.787398293,-0.274727229,0.088731396,0.821506431,1
1.57E+18,871014,1.57E+18,0.650182092,-0.000590653,0.399884249,0.000276743,0.000138346,0.705683631,0.708527005,-0.000926749,-8.93E-05,-6.67E-05,-0.001554872,0.001390247,-0.003152795,0.562076036,-1.464444254,2.805439169,-0.323523073,0.047143816,0.800353163,1
1.57E+18,871015,1.57E+18,0.650182092,-0.000590653,0.399884249,0.000276743,0.000138346,0.705683631,0.708527005,-0.000926749,-8.93E-05,-6.67E-05,-0.001554872,0.001390247,-0.003152795,0.983861632,-1.305482798,3.166460801,-0.32110542,0.006134827,0.822327985,1
1.57E+18,871016,1.57E+18,0.650182092,-0.000590653,0.399884249,0.000276743,0.000138346,0.705683631,0.708527005,-0.000926749,-8.93E-05,-6.67E-05,-0.001554872,0.001390247,-0.003152795,0.546508545,-1.447656646,2.911235369,-0.309749847,0.013372558,0.82251971,1
1.57E+18,871017,1.57E+18,0.650182092,-0.000590653,0.399884249,0.000276743,0.000138346,0.705683631,0.708527005,-0.000926749,-8.93E-05,-6.67E-05,-0.001554872,0.001390247,-0.003152795,0.074204064,-0.976183192,2.802454431,-0.239888785,0.090527418,0.804108225,1
1.57E+18,871018,1.57E+18,0.650182092,-0.000590653,0.399884249,0.000276743,0.000138346,0.705683631,0.708527005,-0.000926749,-8.93E-05,-6.67E-05,-0.001554872,0.001390247,-0.003152795,-0.531608399,-1.330432064,2.70175907,-0.273937822,0.058745926,0.85496729,1
1.57E+18,871019,1.57E+18,0.650186607,-0.000598192,0.399857464,0.000327086,0.000126327,0.705683516,0.708527101,-0.001290305,-0.000309637,-0.001360152,0.001071443,-0.002864432,-0.003166216,-0.956749485,-0.83080054,2.39881254,-0.20170165,-0.009574885,0.841777144,1
1.57E+18,871020,1.57E+18,0.650179331,-0.000577394,0.399904925,0.00031193,6.23E-05,0.705704688,0.708506029,-0.001436084,-0.000397706,-0.0018774,0.002121628,-0.004566356,-0.003172374,-1.195372192,-1.323697163,2.080652885,-0.267224744,-0.070793379,0.839473565,1
1.57E+18,871021,1.57E+18,0.650183804,-0.000584864,0.399878394,0.000361797,5.04E-05,0.705704569,0.708506124,0.000291224,0.000252625,0.002251378,-0.007441155,-0.008140975,0.00138305,-1.434348707,-1.171585246,1.79710192,-0.240695298,-0.177298501,0.87407906,1
1.57E+18,871022,1.57E+18,0.650188277,-0.000592331,0.399851861,0.000411664,3.85E-05,0.705704449,0.708506217,-0.001439583,-0.000471713,-0.002255437,0.002674692,-0.008929647,-0.002356402,-1.873691538,-1.124909884,1.843143789,-0.214383163,0.061418003,0.828315938,1
1.57E+18,871023,1.57E+18,0.65019279,-0.000599866,0.399825076,0.000462004,2.65E-05,0.70563098,0.708579357,-0.001654302,-0.000530206,-0.002653297,0.003698527,-0.007118621,-0.003180821,-1.282547978,-0.779100209,2.460529215,-0.174878708,0.190635654,0.777432302,1
1.57E+18,871024,1.57E+18,0.65019279,-0.000599866,0.399825076,0.000462004,2.65E-05,0.70563098,0.708579357,-0.001508777,-0.000442056,-0.002135918,0.002647716,-0.005416926,-0.01717519,-0.816580049,-0.990325587,2.982658096,-0.282388675,0.178656895,0.736896143,1
1.57E+18,871025,1.57E+18,0.650204525,-0.000628109,0.399751072,0.000527024,7.86E-05,0.705609692,0.708600507,-0.002873529,-0.000909432,-0.005160385,0.009860003,0.000232342,-0.011307759,-0.372290609,-1.070516496,2.988366461,-0.258188459,0.227000158,0.739192887,1
1.57E+18,871026,1.57E+18,0.650204525,-0.000628109,0.399751072,0.000527024,7.86E-05,0.705609692,0.708600507,-0.001938108,-0.000558514,-0.002931851,0.004692104,-0.001795882,-0.00482337,-0.827230115,-0.822903833,3.243718278,-0.251875425,0.206718945,0.740089815,1
1.57E+18,871027,1.57E+18,0.650204525,-0.000628109,0.399751072,0.000527024,7.86E-05,0.705609692,0.708600507,-0.000926754,-8.95E-05,-6.64E-05,-0.001555597,0.001389655,-0.003152795,-1.245128589,-0.564484707,3.05370987,-0.170279716,0.233654801,0.738551641,1
1.57E+18,871028,1.57E+18,0.650204525,-0.000628109,0.399751072,0.000527024,7.86E-05,0.705609692,0.708600507,-0.000926754,-8.95E-05,-6.64E-05,-0.001555597,0.001389655,-0.003152795,-1.639038009,-1.019673851,2.396106359,-0.209761682,0.206984329,0.728465021,1
1.57E+18,871029,1.57E+18,0.650200058,-0.000620651,0.399777608,0.000477155,9.05E-05,0.705609813,0.70860042,-0.000926748,-8.95E-05,-6.65E-05,-0.001555322,0.001389825,-0.003152856,-1.379719647,-0.824241767,2.56022019,-0.257375357,0.068303508,0.762457027,1
1.57E+18,871030,1.57E+18,0.65019279,-0.000599866,0.399825076,0.000462004,2.65E-05,0.70563098,0.708579357,-0.000417346,0.000219071,0.001744425,-0.005233367,0.007345783,-0.003132953,-1.004929074,-1.275117847,2.419777857,-0.273915413,0.009554432,0.783682072,1
1.57E+18,871031,1.57E+18,0.65019279,-0.000599866,0.399825076,0.000462004,2.65E-05,0.70563098,0.708579357,0.000800497,0.000561225,0.004062319,-0.011117484,-0.002186693,0.00140276,-0.631534516,-1.263320914,2.205403092,-0.27023847,-0.010535641,0.769585054,1
1.57E+18,871032,1.57E+18,0.65019279,-0.000599866,0.399825076,0.000462004,2.65E-05,0.70563098,0.708579357,-0.000639107,1.28E-05,0.000590206,-0.003103009,0.000430172,-0.002325428,-0.081409415,-1.155046675,2.337156333,-0.229669934,-0.01366046,0.748967624,1
1.57E+18,871033,1.57E+18,0.65019279,-0.000599866,0.399825076,0.000462004,2.65E-05,0.70563098,0.708579357,-0.000926681,-8.95E-05,-6.64E-05,-0.001555528,0.001389852,-0.003152663,0.339253048,-1.292976569,2.258173063,-0.259500117,0.005045533,0.721452039,1
1.57E+18,871034,1.57E+18,0.65019279,-0.000599866,0.399825076,0.000462004,2.65E-05,0.70563098,0.708579357,-0.000926681,-8.95E-05,-6.64E-05,-0.001555528,0.001389852,-0.003152663,0.76726997,-1.18727993,2.533750508,-0.275432422,-0.060245034,0.744481699,1
1.57E+18,871035,1.57E+18,0.650197259,-0.000607328,0.399798542,0.000511873,1.46E-05,0.705630856,0.708579447,-0.001144972,-0.000221673,-0.000842414,2.06E-05,-0.001162744,-0.003161111,0.94862835,-0.883546829,2.661217826,-0.227153654,-0.038247661,0.73219015,1
1.57E+18,871036,1.57E+18,0.650197259,-0.000607328,0.399798542,0.000511873,1.46E-05,0.705630856,0.708579447,-0.001508782,-0.000442049,-0.002135862,0.002647629,-0.00541698,-0.00317519,0.513387436,-0.907569112,2.78401231,-0.245503917,0.008321534,0.749289013,1
1.57E+18,871037,1.57E+18,0.650156049,-0.00057572,0.399778829,0.000526584,4.16E-05,0.705677175,0.708533306,-0.000491792,0.000482438,-0.000339911,-0.000738108,0.001633448,-0.001343709,0.081931369,-1.05844813,2.708465082,-0.275335114,0.038642536,0.772092092,1
1.57E+18,871038,1.57E+18,0.650156049,-0.00057572,0.399778829,0.000526584,4.16E-05,0.705677175,0.708533306,0.001465083,0.003055697,-0.001570761,0.00293978,0.002730395,0.006796921,-0.325141164,-1.183060222,2.91080744,-0.277906837,0.095910788,0.783067822,1
1.57E+18,871039,1.57E+18,0.650197259,-0.000607328,0.399798542,0.000511873,1.46E-05,0.705630856,0.708579447,-0.001796407,-0.001233118,0.000480699,-0.003190232,0.000902266,-0.006770721,-0.381661631,-0.950410403,2.836087549,-0.257369778,0.106356332,0.800156876,1
1.57E+18,871040,1.57E+18,0.650197259,-0.000607328,0.399798542,0.000511874,1.46E-05,0.705704201,0.708506399,-0.003101601,-0.002947982,0.001301266,-0.005642122,0.000172137,-0.012197807,-0.374537931,-0.765475567,2.92991512,-0.240209183,0.08495695,0.797572456,1
1.57E+18,871041,1.57E+18,0.650197259,-0.000607328,0.399798542,0.000511874,1.46E-05,0.705704201,0.708506399,-0.000926704,-8.93E-05,-6.63E-05,-0.001555328,0.00139012,0.011847337,-0.357190074,-0.946578716,2.961484259,-0.270315945,0.08203776,0.793248019,1
1.57E+18,871042,1.57E+18,0.650197259,-0.000607328,0.399798542,0.000511874,1.46E-05,0.705704201,0.708506399,-0.000926704,-8.93E-05,-6.63E-05,-0.001555328,0.00139012,0.001847337,-0.437848799,-1.378641436,2.679249228,-0.309035962,0.06449079,0.797106737,1
1.57E+18,871043,1.57E+18,0.65019279,-0.000599866,0.399825076,0.000462007,2.65E-05,0.705704326,0.70850631,-0.000708386,4.29E-05,0.000709667,-0.003130929,0.003943042,-0.003144216,-0.34669812,-1.16100937,2.430162887,-0.271717648,0.054483738,0.783955978,1
1.57E+18,871044,1.57E+18,0.65019279,-0.000599866,0.399825076,0.000462007,2.65E-05,0.705704326,0.70850631,-0.000417301,0.000219157,0.001744425,-0.005231846,0.007346866,-0.003132953,-0.468638969,-0.727120085,2.612596801,-0.18654788,0.012832324,0.819265927,1
1.57E+18,871045,1.57E+18,0.65019279,-0.000599866,0.399825076,0.000462007,2.65E-05,0.705704326,0.70850631,-0.000926699,-8.93E-05,-6.64E-05,-0.00155524,0.001390174,-0.003152663,-0.448106366,-1.306348952,2.493286201,-0.262267489,0.031828872,0.807517799,1
1.57E+18,871046,1.57E+18,0.65019279,-0.000599866,0.399825076,0.000462007,2.65E-05,0.705704326,0.70850631,-0.000926699,-8.93E-05,-6.64E-05,-0.00155524,0.001390174,-0.003152663,-0.365246067,-1.338337359,2.428542238,-0.303198742,-0.028883853,0.813938946,1
1.57E+18,871047,1.57E+18,0.65019279,-0.000599866,0.399825076,0.000462007,2.65E-05,0.705704326,0.70850631,-0.000926699,-8.93E-05,-6.64E-05,-0.00155524,0.001390174,-0.003152663,-0.331298468,-1.060973725,2.651979032,-0.287586549,-0.028605465,0.797046493,1
1.57E+18,871048,1.57E+18,0.650197259,-0.000607328,0.399798542,0.000511874,1.46E-05,0.705704201,0.708506399,-0.001072246,-0.000177376,-0.000583724,-0.000504869,-0.000311792,-0.003158295,-0.477842775,-1.207234698,2.611365821,-0.282854835,0.008365686,0.837492842,1
1.57E+18,871049,1.57E+18,0.650197259,-0.000607328,0.399798542,0.000511874,1.46E-05,0.705704201,0.708506399,-0.001508874,-0.000441736,-0.002135862,0.002646507,-0.005417528,-0.00317519,-0.461399571,-0.776674864,2.759062067,-0.26549677,0.085574474,0.806257038,1
1.57E+18,871050,1.57E+18,0.650197259,-0.000607328,0.399798542,0.000511874,1.46E-05,0.705704201,0.708506399,-0.000926704,-8.93E-05,-6.63E-05,-0.001555328,0.00139012,-0.003152663,-0.353044581,-0.894557396,2.582334397,-0.228797835,0.06366786,0.779032006,1
1.57E+18,871051,1.57E+18,0.650197259,-0.000607328,0.399798542,0.000511874,1.46E-05,0.705704201,0.708506399,-0.000926704,-8.93E-05,-6.63E-05,-0.001555328,0.00139012,-0.003152663,-0.355965049,-0.742683498,2.872997667,-0.21966738,0.071613434,0.794919636,1
1.57E+18,871052,1.57E+18,0.650169658,-0.000633984,0.399818418,0.000395881,-3.57E-05,0.705701057,0.708509605,7.96E-05,0.000268249,0.00223185,-0.006972047,-0.001967942,-0.000258581,-0.32414761,-0.803439599,3.459474487,-0.320268858,-0.04424668,0.821071585,1
1.57E+18,871053,1.57E+18,0.650162433,-0.00061335,0.399865567,0.00038082,-9.93E-05,0.705722064,0.708488682,-0.001877421,0.002095014,0.003313276,-0.022322884,0.004714766,-0.001238245,-0.196476282,-0.946242982,3.394282996,-0.286216951,-0.020853788,0.812093593,1
1.57E+18,871054,1.57E+18,0.650134195,-0.000580104,0.399920935,0.000481059,-0.000149998,0.705777519,0.70843337,0.001167983,0.001793349,0.005034322,-0.017064387,-0.003855417,0.004758951,-0.218309758,-1.584056399,3.002160684,-0.348627233,0.086786432,0.800909606,1
1.57E+18,871055,1.57E+18,0.650168111,-0.000590947,0.399988127,0.000451197,-0.000241085,0.70575235,0.708458438,0.002000925,0.002193512,0.005171576,0.001683049,-0.016530174,0.00995979,-0.264619341,-1.475002151,2.398442067,-0.278463786,0.167661221,0.799290428,1
1.57E+18,871056,1.57E+18,0.650168111,-0.000590947,0.399988127,0.000451197,-0.000241085,0.70575235,0.708458438,-0.001940468,-0.002732609,0.004986797,-0.011585246,-0.006976541,-0.008553762,-0.346909919,-1.17791281,2.279559616,-0.262464137,0.198502898,0.798202024,1
1.57E+18,871057,1.57E+18,0.6501637,-0.000516904,0.400014632,0.000401479,-0.000229262,0.705788805,0.708422155,0.00325722,-0.000758174,0.001372984,-0.00487307,0.00440735,0.001147645,-0.463153602,-1.069617861,2.378827641,-0.27855151,0.074043908,0.804123261,1
1.57E+18,871058,1.57E+18,0.650159176,-0.000509352,0.400041409,0.000351138,-0.000217235,0.705788938,0.708422053,0.002757398,0.000183938,0.001481679,-0.00469983,0.006481065,0.001867882,-0.484181892,-1.297656687,1.725447521,-0.245970075,0.012834146,0.823681962,1
1.57E+18,871059,1.57E+18,0.650159176,-0.000509352,0.400041409,0.000351138,-0.000217235,0.705788938,0.708422053,-0.00041532,0.000218956,0.001743853,-0.005230402,0.007348359,-0.003128747,-0.498682514,-1.124348058,1.910740931,-0.219403158,-0.057766984,0.796645284,1
1.57E+18,871060,1.57E+18,0.650159176,-0.000509352,0.400041409,0.000351138,-0.000217235,0.705788938,0.708422053,-0.000853407,-4.52E-05,0.000192236,-0.00208025,0.002241879,-0.003148795,-0.640319035,-1.559700945,1.616388495,-0.23405098,-0.031733698,0.826757029,1
1.57E+18,871061,1.57E+18,0.650122492,-0.000485302,0.399994905,0.000416174,-0.000202208,0.70583512,0.708376009,-0.000203939,0.001120077,-0.002042925,0.003112855,-0.002256123,0.001353953,-0.533621163,-1.186887057,2.077155834,-0.257859659,-0.016296838,0.812669574,1
1.57E+18,871062,1.57E+18,0.650122492,-0.000485302,0.399994905,0.000416174,-0.000202208,0.70583512,0.708376009,0.000955002,0.002747268,-0.003380598,0.00661476,-0.003227631,0.006774475,-0.456645941,-1.547632728,2.313295722,-0.294638644,0.046695195,0.79963748,1
1.57E+18,871063,1.57E+18,0.65012697,-0.000492779,0.399968385,0.000466039,-0.000214125,0.705834987,0.708376107,-0.00143739,-0.000397323,-0.001876169,0.002119199,-0.004567466,-0.003175183,-0.477597849,-1.334881854,2.428274936,-0.259652993,0.075656813,0.809699847,1
1.57E+18,871064,1.57E+18,0.650134262,-0.000513543,0.399920915,0.000481202,-0.000150087,0.705813839,0.708397184,-0.002226838,-0.000660006,-0.003587488,0.006238067,-0.000838949,-0.005653037,-0.436906112,-0.845023213,2.826513752,-0.24972989,0.154263126,0.771122478,1
1.57E+18,871065,1.57E+18,0.650134262,-0.000513543,0.399920915,0.000481202,-0.000150087,0.705813839,0.708397184,-0.002220582,-0.000549145,-0.003020898,0.005410005,0.00570642,-0.006875032,-0.384485023,-1.019416974,2.885881344,-0.226810142,0.141228259,0.788243372,1
1.57E+18,871066,1.57E+18,0.650134262,-0.000513543,0.399920915,0.000481202,-0.000150087,0.705813839,0.708397184,-0.000926467,-8.92E-05,-6.63E-05,-0.001555183,0.001390432,-0.003152343,-0.377561178,-0.788843559,3.079438386,-0.239253384,0.151636297,0.794240982,1
1.57E+18,871067,1.57E+18,0.650134262,-0.000513543,0.399920915,0.000481202,-0.000150087,0.705813839,0.708397184,-0.000926467,-8.92E-05,-6.63E-05,-0.001555183,0.001390432,-0.003152343,-0.415555967,-1.242247297,2.996429518,-0.284698339,0.142823723,0.807326861,1
1.57E+18,871068,1.57E+18,0.650175471,-0.000545149,0.399940635,0.000466503,-0.000177135,0.705767524,0.708443331,-0.002448927,-0.002090335,0.000891052,-0.004416138,0.00053796,-0.009483869,-0.413791755,-1.291980641,2.805508903,-0.274605964,0.116476156,0.817914772,1
1.57E+18,871069,1.57E+18,0.650170994,-0.000537674,0.399967162,0.000416637,-0.000165224,0.705767655,0.708443234,-0.002447552,-0.00224411,0.00180363,-0.00639996,0.002969362,-0.010378754,-0.385696496,-1.180638883,2.717157616,-0.266590453,0.055016217,0.81468405,1
1.57E+18,871070,1.57E+18,0.650170994,-0.000537674,0.399967162,0.000416637,-0.000165224,0.705767655,0.708443234,-0.000415819,0.000219012,0.001744039,-0.00523083,0.007347945,-0.003129801,-0.446144988,-1.24414162,2.60874306,-0.260375575,0.00284676,0.808920567,1
1.57E+18,871071,1.57E+18,0.650170994,-0.000537674,0.399967162,0.000416637,-0.000165224,0.705767655,0.708443234,-0.000926495,-8.92E-05,-6.63E-05,-0.001555295,0.001390602,-0.003152268,-0.326507074,-1.454640948,2.26283421,-0.293429781,-0.029019292,0.790954282,1
1.57E+18,871072,1.57E+18,0.6501637,-0.000516904,0.400014632,0.000401479,-0.000229262,0.705788805,0.708422155,8.02E-05,0.000268541,0.002231817,-0.006972191,-0.001967014,-0.000256814,-0.365307555,-0.975443881,2.38931717,-0.220052415,-0.045374392,0.814488529,1
1.57E+18,871073,1.57E+18,0.6501637,-0.000516904,0.400014632,0.000401479,-0.000229262,0.705788805,0.708422155,0.000511547,0.000421869,0.003216728,-0.00929371,-0.003406053,0.000984038,-0.482355189,-0.896043328,2.161958976,-0.219092388,0.007111438,0.825604664,1
1.57E+18,871074,1.57E+18,0.6501637,-0.000516904,0.400014632,0.000401479,-0.000229262,0.705788805,0.708422155,-0.000926426,-8.92E-05,-6.63E-05,-0.001555313,0.001390745,-0.003152136,-0.376886924,-1.170367336,2.241806764,-0.235053642,0.01904287,0.80431767,1
1.57E+18,871075,1.57E+18,0.6501637,-0.000516904,0.400014632,0.000401479,-0.000229262,0.705788805,0.708422155,-0.000926426,-8.92E-05,-6.63E-05,-0.001555313,0.001390745,-0.003152136,-0.326684295,-0.831477111,2.428377899,-0.196925461,0.03163594,0.773667869,1
1.57E+18,871076,1.57E+18,0.6501637,-0.000516904,0.400014632,0.000401479,-0.000229262,0.705788805,0.708422155,-0.000926426,-8.92E-05,-6.63E-05,-0.001555313,0.001390745,-0.003152136,-0.407278863,-1.083190436,2.50410045,-0.24681676,0.052924202,0.824449002,1
1.57E+18,871077,1.57E+18,0.6501637,-0.000516904,0.400014632,0.000401479,-0.000229262,0.705788805,0.708422155,-0.000926426,-8.92E-05,-6.63E-05,-0.001555313,0.001390745,-0.003152136,-0.383873057,-1.069526722,2.686701604,-0.248211539,0.077754785,0.81627033,1
1.57E+18,871078,1.57E+18,0.650168179,-0.000524383,0.399988107,0.000451345,-0.000241175,0.705788671,0.708422254,-0.001364518,-0.000353379,-0.001617871,0.001594752,-0.003715789,-0.003172184,-0.450799331,-1.10625153,2.632425568,-0.261921864,0.107592036,0.786393841,1
1.57E+18,871079,1.57E+18,0.650168179,-0.000524383,0.399988107,0.000451345,-0.000241175,0.705788671,0.708422254,-0.001437532,-0.000397406,-0.001876474,0.002119778,-0.004566869,-0.003175525,-0.470218292,-1.221547555,2.773800072,-0.261582087,0.132170285,0.797111245,1
1.57E+18,871080,1.57E+18,0.650168179,-0.000524383,0.399988107,0.000451345,-0.000241175,0.705788671,0.708422254,-0.000926431,-8.92E-05,-6.63E-05,-0.0015554,0.001390691,-0.003152136,-0.377958772,-1.476469364,2.737976942,-0.305485982,0.117965505,0.792413815,1
1.57E+18,871081,1.57E+18,0.6501637,-0.000516904,0.400014632,0.000401479,-0.000229262,0.705788805,0.708422155,-0.000780397,-1.17E-06,0.000450896,-0.002605363,0.003092905,-0.003145454,-0.49104552,-0.834212081,2.947754024,-0.22560919,0.103713644,0.817376779,1
1.57E+18,871082,1.57E+18,0.6501637,-0.000516904,0.400014632,0.000401479,-0.000229262,0.705788805,0.708422155,-0.000415325,0.000218964,0.00174391,-0.00523049,0.007348305,-0.003128747,-0.344196998,-1.403770244,2.489140113,-0.301976804,0.037004343,0.784922079,1
1.57E+18,871083,1.57E+18,0.6501637,-0.000516904,0.400014632,0.000401479,-0.000229262,0.705788805,0.708422155,-0.000926426,-8.92E-05,-6.63E-05,-0.001555313,0.001390745,-0.003152136,-0.448493969,-0.85115569,2.687464794,-0.228353983,0.033959932,0.807593449,1
1.57E+18,871084,1.57E+18,0.6501637,-0.000516904,0.400014632,0.000401479,-0.000229262,0.705788805,0.708422155,-0.000926426,-8.92E-05,-6.63E-05,-0.001555313,0.001390745,-0.003152136,-0.336871429,-0.596582374,2.461594987,-0.199009797,0.019893424,0.783985824,1
1.57E+18,871085,1.57E+18,0.6501637,-0.000516904,0.400014632,0.000401479,-0.000229262,0.705788805,0.708422155,-0.000926426,-8.92E-05,-6.63E-05,-0.001555313,0.001390745,-0.003152136,-0.409036674,-0.937983692,2.498378456,-0.248844118,0.064823629,0.776381315,1
1.57E+18,871086,1.57E+18,0.6501637,-0.000516904,0.400014632,0.000401479,-0.000229262,0.705788805,0.708422155,-0.000926426,-8.92E-05,-6.63E-05,-0.001555313,0.001390745,-0.003152136,-0.374570938,-1.068344109,2.534320118,-0.248358659,-0.025822805,0.824543954,1
1.57E+18,871087,1.57E+18,0.6501637,-0.000516904,0.400014632,0.000401479,-0.000229262,0.705788805,0.708422155,-0.000926426,-8.92E-05,-6.63E-05,-0.001555313,0.001390745,-0.003152136,-0.476374073,-1.235770195,2.445814784,-0.262935842,0.067645181,0.810984935,1
1.57E+18,871088,1.57E+18,0.6501637,-0.000516904,0.400014632,0.000401479,-0.000229262,0.705788805,0.708422155,-0.000926426,-8.92E-05,-6.63E-05,-0.001555313,0.001390745,-0.003152136,-0.385457775,-1.307326141,2.228521577,-0.236512231,0.055470099,0.796772253,1
1.57E+18,871089,1.57E+18,0.6501637,-0.000516904,0.400014632,0.000401479,-0.000229262,0.705788805,0.708422155,-0.000926426,-8.92E-05,-6.63E-05,-0.001555313,0.001390745,-0.003152136,-0.45701601,-0.812088739,2.571305946,-0.214968354,0.043782442,0.800723198,1
1.57E+18,871090,1.57E+18,0.6501637,-0.000516904,0.400014632,0.000401479,-0.000229262,0.705788805,0.708422155,-0.000926426,-8.92E-05,-6.63E-05,-0.001555313,0.001390745,-0.003152136,-0.380745193,-0.522857106,2.45037506,-0.150494788,0.063498141,0.79324779,1
1.57E+18,871091,1.57E+18,0.6501637,-0.000516904,0.400014632,0.000401479,-0.000229262,0.705788805,0.708422155,-0.000926426,-8.92E-05,-6.63E-05,-0.001555313,0.001390745,-0.003152136,-0.346193349,-0.885636374,2.640694897,-0.229652155,0.071683587,0.78427528,1
1.57E+18,871092,1.57E+18,0.6501637,-0.000516904,0.400014632,0.000401479,-0.000229262,0.705788805,0.708422155,-0.000926426,-8.92E-05,-6.63E-05,-0.001555313,0.001390745,-0.003152136,-0.478687887,-0.859264871,2.658891805,-0.26013548,0.02829778,0.828086886,1
1.57E+18,871093,1.57E+18,0.6501637,-0.000516904,0.400014632,0.000401479,-0.000229262,0.705788805,0.708422155,-0.000926426,-8.92E-05,-6.63E-05,-0.001555313,0.001390745,-0.003152136,-0.479141328,-0.99814915,2.826949685,-0.252717072,0.127682866,0.808634435,1
1.57E+18,871094,1.57E+18,0.6501637,-0.000516904,0.400014632,0.000401479,-0.000229262,0.705788805,0.708422155,-0.000926426,-8.92E-05,-6.63E-05,-0.001555313,0.001390745,-0.003152136,-0.44117021,-1.192053969,2.67641891,-0.261614181,0.075424508,0.79446623,1
1.57E+18,871095,1.57E+18,0.6501637,-0.000516904,0.400014632,0.000401479,-0.000229262,0.705788805,0.708422155,-0.000926426,-8.92E-05,-6.63E-05,-0.001555313,0.001390745,-0.003152136,-0.366905976,-1.378441844,2.495540669,-0.290645797,0.050272175,0.802541633,1
1.57E+18,871096,1.57E+18,0.6501637,-0.000516904,0.400014632,0.000401479,-0.000229262,0.705788805,0.708422155,-0.000926426,-8.92E-05,-6.63E-05,-0.001555313,0.001390745,-0.003152136,-0.304804164,-1.081071286,2.593391971,-0.248845723,0.030886555,0.815667864,1
1.57E+18,871097,1.57E+18,0.6501637,-0.000516904,0.400014632,0.000401479,-0.000229262,0.705788805,0.708422155,-0.000926426,-8.92E-05,-6.63E-05,-0.001555313,0.001390745,-0.003152136,-0.426608255,-0.946954542,2.533139646,-0.223293247,0.051630651,0.78007526,1
1.57E+18,871098,1.57E+18,0.6501637,-0.000516904,0.400014632,0.000401479,-0.000229262,0.705788805,0.708422155,-0.000926426,-8.92E-05,-6.63E-05,-0.001555313,0.001390745,-0.003152136,-0.374901701,-1.202226865,2.241188149,-0.253820335,0.052795922,0.796622102,1
1.57E+18,871099,1.57E+18,0.6501637,-0.000516904,0.400014632,0.000401479,-0.000229262,0.705788805,0.708422155,-0.000926426,-8.92E-05,-6.63E-05,-0.001555313,0.001390745,-0.003152136,-0.379636561,-1.016015419,2.503797073,-0.251688741,0.032939479,0.802055116,1
1.57E+18,871100,1.57E+18,0.6501637,-0.000516904,0.400014632,0.000401479,-0.000229262,0.705788805,0.708422155,-0.000926426,-8.92E-05,-6.63E-05,-0.001555313,0.001390745,-0.003152136,-0.36799063,-1.440786739,2.470725618,-0.309038235,0.044955778,0.801519054,1
1.57E+18,871101,1.57E+18,0.6501637,-0.000516904,0.400014632,0.000401479,-0.000229262,0.705788805,0.708422155,-0.000926426,-8.92E-05,-6.63E-05,-0.001555313,0.001390745,-0.003152136,-0.452828606,-0.919565388,2.546159899,-0.224463618,0.065601506,0.803865036,1
1.57E+18,871102,1.57E+18,0.6501637,-0.000516904,0.400014632,0.000401479,-0.000229262,0.705788805,0.708422155,-0.000926426,-8.92E-05,-6.63E-05,-0.001555313,0.001390745,-0.003152136,-0.359323311,-1.626815447,2.380137944,-0.309803042,0.064656637,0.790074742,1
1.57E+18,871103,1.57E+18,0.6501637,-0.000516904,0.400014632,0.000401479,-0.000229262,0.705788805,0.708422155,-0.000926426,-8.92E-05,-6.63E-05,-0.001555313,0.001390745,-0.003152136,-0.361323821,-1.039769844,2.573149241,-0.25482403,0.073383063,0.78962042,1
1.57E+18,871104,1.57E+18,0.6501637,-0.000516904,0.400014632,0.000401479,-0.000229262,0.705788805,0.708422155,-0.000926426,-8.92E-05,-6.63E-05,-0.001555313,0.001390745,-0.003152136,-0.4729864,-0.894408569,2.435264577,-0.223773249,0.033870635,0.814777591,1
1.57E+18,871105,1.57E+18,0.6501637,-0.000516904,0.400014632,0.000401479,-0.000229262,0.705788805,0.708422155,-0.000926426,-8.92E-05,-6.63E-05,-0.001555313,0.001390745,-0.003152136,-0.453764658,-0.883725441,2.592443555,-0.225803038,0.045821828,0.803205057,1
1.57E+18,871106,1.57E+18,0.6501637,-0.000516904,0.400014632,0.000401479,-0.000229262,0.705788805,0.708422155,-0.000926426,-8.92E-05,-6.63E-05,-0.001555313,0.001390745,-0.003152136,-0.34083356,-0.769952549,2.593904272,-0.217165386,0.044391652,0.789152641,1
